x,y,objectid,source,ext_id,cat1,cat2,cat3,org_name,name,addrln1,addrln2,city,state,hours,phones,url,info1,info2,post_id,description,zip,link,use_type,latitude,longitude,date_updated,email,dis_status,point_x,point_y
-118.266974746049,34.0431519768325,4907,HSIP Freedom Arenas_nba,,Arts and Recreation,Sports Venues,NBA,National Geospatial-Intelligence Agency (NGA),Staples Center,1111 South Figueroa Street,,Los Angeles,CA,,(213) 742-7326,http://staplescenter.com/,,,5720,Home of the Los Angeles Lakers and Los Angeles Clippers.,90015,http://egis3.lacounty.gov/lms/?p=5720,publish,34.04315201,-118.26697469,2012/03/08 21:41:39+00,,,6480791.7604088,1838191.64344706
-118.70992005585,34.0385599662723,4908,HSIP Freedom Arenas_ncaa_div_,,Arts and Recreation,Sports Venues,NCAA Division 1 Basketbal,National Geospatial-Intelligence Agency (NGA),Firestone Fieldhouse (Pepperdine Wave,John Tyler Drive And Boanowsky,,Malibu,CA,,,,,,5721,,90263,http://egis3.lacounty.gov/lms/?p=5721,publish,34.03856,-118.70992,2010/11/02 02:50:56+00,,,6346593.55669288,1837172.62022264
-118.526270056356,34.2419199662538,4909,HSIP Freedom Arenas_ncaa_div_,,Arts and Recreation,Sports Venues,NCAA Division 1 Basketbal,National Geospatial-Intelligence Agency (NGA),The Matadome (Northridge State Matado,Zelzah Avenue And Plummer Stre,,Northridge,CA,,,,,,5722,,91325,http://egis3.lacounty.gov/lms/?p=5722,publish,34.24192,-118.52627,2010/11/02 02:50:56+00,,,6402618.87640056,1910835.94927365
-118.115130056691,33.7869399675564,4910,HSIP Freedom Arenas_ncaa_div_,,Arts and Recreation,Sports Venues,NCAA Division 1 Basketbal,National Geospatial-Intelligence Agency (NGA),Walter Pyramid (Long Beach State 49'E,Merrian Way And East Atherton,,Long Beach,CA,,,,,,5723,,90815,http://egis3.lacounty.gov/lms/?p=5723,publish,33.78694,-118.11513,2010/11/02 02:50:56+00,,,6526685.47964481,1744862.78351723
-118.44670005627,34.069989966451,4911,HSIP Freedom Arenas_ncaa_div_,,Arts and Recreation,Sports Venues,NCAA Division 1 Basketbal,National Geospatial-Intelligence Agency (NGA),Edwin W. Pauley Pavilion (Ucla Bruins,555 Westwood Plaza,,Los Angeles,CA,,,,,,5724,,90095,http://egis3.lacounty.gov/lms/?p=5724,publish,34.06999,-118.4467,2010/11/02 02:50:56+00,,,6426388.61921531,1848151.69603348
-118.279660055732,34.0209999669468,4912,HSIP Freedom Arenas_ncaa_div_,,Arts and Recreation,Sports Venues,NCAA Division 1 Basketbal,National Geospatial-Intelligence Agency (NGA),Galen Center (Usc Trojans),West Jefferson Boulevard And S,,Los Angeles,CA,,,,,,5725,,90007,http://egis3.lacounty.gov/lms/?p=5725,publish,34.021,-118.27966,2010/11/02 02:50:56+00,,,6476926.39412381,1830140.5683419
-118.415930055852,33.9687099668363,4913,HSIP Freedom Arenas_ncaa_div_,,Arts and Recreation,Sports Venues,NCAA Division 1 Basketbal,National Geospatial-Intelligence Agency (NGA),Albert Gersten Pavilion (Loyola Marym,Loyola Boulevard And Ignation,,Los Angeles,CA,,,,,,5726,,90045,http://egis3.lacounty.gov/lms/?p=5726,publish,33.96871,-118.41593,2010/11/02 02:50:56+00,,,6435554.65108006,1811254.19568165
-118.267160056391,34.0432099671954,4914,HSIP Freedom Arenas_nhl,,Arts and Recreation,Sports Venues,NHL,National Geospatial-Intelligence Agency (NGA),Staples Center,1111 South Figueroa Street,,Los Angeles,CA,,,,,,5727,,90015,http://egis3.lacounty.gov/lms/?p=5727,publish,34.04321,-118.26716,2010/11/02 02:50:56+00,,,6480735.67784381,1838212.89635731
-118.267160056391,34.0432099671954,4915,HSIP Freedom Arenas_wnba,,Arts and Recreation,Sports Venues,WNBA,National Geospatial-Intelligence Agency (NGA),Staples Center,1111 South Figueroa Stree,,Los Angeles,CA,,,,,,5728,,,http://egis3.lacounty.gov/lms/?p=5728,publish,34.04321,-118.26716,2010/11/02 02:50:56+00,,,6480735.67784381,1838212.89635731
-118.167940056543,34.1616299664619,11960,HSIP Freedom College_bowl_gam,,Arts and Recreation,Sports Venues,NCAA Division 1 bowl game,National Geospatial-Intelligence Agency (NGA),Rose Bowl,1001 Rose Bowl Drive,,Pasadena,CA,,,,,,12777,,91103,http://egis3.lacounty.gov/lms/?p=12777,publish,34.16163,-118.16794,2010/11/02 02:50:56+00,,,6510865.79409264,1881243.04323648
-118.577500055926,34.1811110666399,20528,HSIP Freedom Gnis_admin_featu,2084358,Arts and Recreation,Sports Venues,,US Geological Survey (USGS) & LA County,Shepard Stadium,,,,,,,,,,22687,,,http://egis3.lacounty.gov/lms/?p=22687,publish,34.1811111,-118.5775,2014/06/09 19:17:06+00,,,6387008.96273856,1888791.8644249
-118.524722255642,34.2597221664748,20548,HSIP Freedom Gnis_admin_featu,2129824,Arts and Recreation,Sports Venues,,US Geological Survey (USGS) & LA County,John Elway Stadium,,,,,,,,,,22711,,,http://egis3.lacounty.gov/lms/?p=22711,publish,34.2597222,-118.5247222,2014/06/09 19:18:20+00,,,6403120.47382255,1917311.95928748
-118.416111156011,34.174999966181,20579,HSIP Freedom Gnis_admin_featu,2126041,Arts and Recreation,Sports Venues,,US Geological Survey (USGS) & LA County,Monarch Stadium,,,,,,,,,,22745,,,http://egis3.lacounty.gov/lms/?p=22745,publish,34.175,-118.4161111,2014/06/09 19:21:50+00,,,6435810.51506963,1886326.69612689
-118.286463556557,34.0150131669958,20773,HSIP Freedom Gnis_admin_featu,242123,Arts and Recreation,Sports Venues,,US Geological Survey (USGS) & LA County,Exposition Park,,,,,,,,,,22979,,,http://egis3.lacounty.gov/lms/?p=22979,publish,34.0150132,-118.2864635,2014/06/09 22:52:10+00,,,6474858.56066105,1827967.66586356
-118.527863155684,34.4163851658562,21533,HSIP Freedom Gnis_cultural_fe,1744960,Arts and Recreation,Sports Venues,Raceways,National Geospatial-Intelligence Agency (NGA),Saugus Speedway,,,,,,,,,,23787,,,http://egis3.lacounty.gov/lms/?p=23787,publish,34.4163852,-118.5278631,2010/11/02 02:50:56+00,,,6402470.8264998,1974328.79538481
-118.28757475666,34.0139020667183,22189,HSIP Freedom Gnis_cultural_fe,1654706,Arts and Recreation,Sports Venues,,National Geospatial-Intelligence Agency (NGA),Los Angeles Coliseum,,,,,,,,,,24451,,,http://egis3.lacounty.gov/lms/?p=24451,publish,34.0139021,-118.2875747,2010/11/02 02:50:56+00,,,6474520.65943398,1827564.27723464
-117.987222257233,34.1097221674004,22265,HSIP Freedom Gnis_cultural_fe,2129078,Arts and Recreation,Sports Venues,Raceways,National Geospatial-Intelligence Agency (NGA),Irwindale Speedway,,,,,,,,,,24529,,,http://egis3.lacounty.gov/lms/?p=24529,publish,34.1097222,-117.9872222,2010/11/02 02:50:56+00,,,6565538.21919639,1862310.64835855
-117.941452757127,34.0980641668149,22304,HSIP Freedom Gnis_cultural_fe,243918,Arts and Recreation,Sports Venues,Raceways,National Geospatial-Intelligence Agency (NGA),Irwindale Siding,,,,,,,,,,24569,,,http://egis3.lacounty.gov/lms/?p=24569,publish,34.0980642,-117.9414527,2010/11/02 02:50:56+00,,,6579395.30237456,1858073.00099398
-117.938397156747,34.1258408671269,22363,HSIP Freedom Gnis_cultural_fe,1654677,Arts and Recreation,Sports Venues,Raceways,National Geospatial-Intelligence Agency (NGA),Irwindale Raceway,,,,,,,,,,24630,,,http://egis3.lacounty.gov/lms/?p=24630,publish,34.1258409,-117.9383971,2010/11/02 02:50:56+00,,,6580314.17816147,1868182.00997539
-117.772835657424,34.090842867363,22411,HSIP Freedom Gnis_cultural_fe,1723731,Arts and Recreation,Sports Venues,Raceways,National Geospatial-Intelligence Agency (NGA),Pomona Raceway,,,,,,,,,,24679,,,http://egis3.lacounty.gov/lms/?p=24679,publish,34.0908429,-117.7728356,2010/11/02 02:50:56+00,,,6630449.37907197,1855517.5940313
-118.239930056005,34.0733499669319,46921,HSIP Freedom Stadiums_mlb,,Arts and Recreation,Sports Venues,MLB,National Geospatial-Intelligence Agency (NGA),Dodger Stadium,1000 Elysian Park Avenue,,Los Angeles,CA,,,,,,49382,,,http://egis3.lacounty.gov/lms/?p=49382,publish,34.07335,-118.23993,2010/11/02 02:50:56+00,,,6489011.02087314,1849160.58673222
-118.260940056353,33.8629899674506,46922,HSIP Freedom Stadiums_mls,,Arts and Recreation,Sports Venues,MLS,National Geospatial-Intelligence Agency (NGA),The Home Depot Center,18400 Avalon Boulevard,,Carson,CA,,,,,,49383,,90746,http://egis3.lacounty.gov/lms/?p=49383,publish,33.86299,-118.26094,2010/11/02 02:50:56+00,,,6482449.73183039,1772622.16795897
-118.287930056288,34.0141199667723,46923,HSIP Freedom Stadiums_ncaa_di,,Arts and Recreation,Sports Venues,NCAA Division 1-A Footbal,National Geospatial-Intelligence Agency (NGA),Los Angeles Memorial Coliseum (Usc Tr,3911 South Figueroa Street,,Los Angeles,CA,,,,,,49384,,90037,http://egis3.lacounty.gov/lms/?p=49384,publish,34.01412,-118.28793,2010/11/02 02:50:56+00,,,6474413.21312656,1827643.88337465
-118.167940056543,34.1616299664619,46924,HSIP Freedom Stadiums_ncaa_di,,Arts and Recreation,Sports Venues,NCAA Division 1-A Footbal,National Geospatial-Intelligence Agency (NGA),Rose Bowl (Ucla Bruins),1001 Rose Bowl Drive,,Pasadena,CA,,,,,,49385,,91103,http://egis3.lacounty.gov/lms/?p=49385,publish,34.16163,-118.16794,2010/11/02 02:50:56+00,,,6510865.79409264,1881243.04323648
-118.338280056352,33.9496999670372,46925,HSIP Freedom Tracks_horses,,Arts and Recreation,Sports Venues,Horse Race Track,National Geospatial-Intelligence Agency (NGA),Hollywood Park,1050 South Paririe Avenue,,Inglewood,CA,,,,,,49386,,90301,http://egis3.lacounty.gov/lms/?p=49386,publish,33.9497,-118.33828,2010/11/02 02:50:56+00,,,6459075.81466755,1804247.75628248
-118.04443005669,34.1409899666358,46926,HSIP Freedom Tracks_horses,,Arts and Recreation,Sports Venues,Horse Race Track,National Geospatial-Intelligence Agency (NGA),Santa Anita Race Track,285 West Huntington Drive,,Arcadia,CA,,,,,,49387,,,http://egis3.lacounty.gov/lms/?p=49387,publish,34.14099,-118.04443,2010/11/02 02:50:56+00,,,6548226.21641889,1873692.30243248
-118.192770056088,33.7663799675201,46927,HSIP Freedom Tracks_irl,,Arts and Recreation,Sports Venues,IRL,National Geospatial-Intelligence Agency (NGA),Long Beach Grand Prix,300 East Ocean Boulevard,,Long Beach,CA,,,,,,49388,,90802,http://egis3.lacounty.gov/lms/?p=49388,publish,33.76638,-118.19277,2010/11/02 02:50:56+00,,,6503078.48387989,1737416.56120498
-118.037935556696,34.0306293569251,61257,LA County Chief Information Office,,Arts and Recreation,Sports Venues,,,Pico Rivera Sports Arena,11003 Rooks Rd,,Pico Rivera,CA,,(562) 695-0747,http://prsa.tripod.com/content.htm,,,63189,"<span style=""color: #000000;"">Venue for rodeos and concerts.</span>",90601,http://egis3.lacounty.gov/lms/?p=63189,publish,34.03062939,-118.0379355,2011/10/28 17:18:06+00,,Not Active,6550176.23712514,1833529.18000297
